[{"code": 23117, "lon": 24.8726068163, "lam_code": 117, "name_tsa": "L_vt1_Munkkiniemi", "lat": 60.202898816, "name_fi": "Tie 1 Munkkiniemi"}, {"code": 23103, "lon": 24.8428279285, "lam_code": 103, "name_tsa": "L_vt1_Huopalahti", "lat": 60.2054356654, "name_fi": "Tie 1 Huopalahti"}, {"code": 23144, "lon": 24.7938222835, "lam_code": 144, "name_tsa": "L_vt1_Friisinmäki", "lat": 60.2071712958, "name_fi": "Tie 1 Friisinmäki"}, {"code": 23167, "lon": 24.7411953245, "lam_code": 167, "name_tsa": "L_vt1_Sepänkylä", "lat": 60.2032131532, "name_fi": "Tie 1 Sepänkylä"}, {"code": 23175, "lon": 24.661370535, "lam_code": 175, "name_tsa": "L_vt1_Lommila", "lat": 60.2154559002, "name_fi": "Tie 1 Espoo, Lommila"}, {"code": 23139, "lon": 24.5995038116, "lam_code": 139, "name_tsa": "L_vt1_Nupuri", "lat": 60.2304747574, "name_fi": "Tie 1 Nupuri"}, {"code": 23191, "lon": 24.5006806581, "lam_code": 191, "name_tsa": "L_vt1_Kolmiranta", "lat": 60.2575485803, "name_fi": "Tie 1 Espoo, Kolmiranta"}, {"code": 23192, "lon": 24.4167152044, "lam_code": 192, "name_tsa": "L_vt1_Veikkola", "lat": 60.2870416284, "name_fi": "Tie 1 Veikkola"}, {"code": 23104, "lon": 24.3439236988, "lam_code": 104, "name_tsa": "L_vt1_Palojärvi", "lat": 60.2923433327, "name_fi": "Tie 1 Palojärvi"}, {"code": 23193, "lon": 24.2534241371, "lam_code": 193, "name_tsa": "L_vt1_Hevoskallio", "lat": 60.302136725, "name_fi": "Tie 1 Hevoskallio"}, {"code": 23194, "lon": 24.1587519163, "lam_code": 194, "name_tsa": "L_vt1_Lehmijärvi", "lat": 60.2880070602, "name_fi": "Tie 1 Lohja, Lehmijärvi"}, {"code": 24607, "lon": 24.0792165922, "lam_code": 1607, "name_tsa": "L_vt1_Karnainen", "lat": 60.2887878788, "name_fi": "Tie 1 Karnainen"}, {"code": 24606, "lon": 23.9351449692, "lam_code": 1606, "name_tsa": "L_vt1_Pitkämäki", "lat": 60.3286428588, "name_fi": "Tie 1 Pitkämäki"}, {"code": 24605, "lon": 23.8716857586, "lam_code": 1605, "name_tsa": "L_vt1_Hauklampi", "lat": 60.3668263549, "name_fi": "Tie 1 Hauklampi"}, {"code": 23106, "lon": 24.3451646693, "lam_code": 106, "name_tsa": "L_vt2_Huhmari", "lat": 60.3091677819, "name_fi": "Tie 2 Huhmari"}, {"code": 23122, "lon": 24.1540782285, "lam_code": 122, "name_tsa": "L_vt2_Karkkila", "lat": 60.5729448212, "name_fi": "Tie 2 Karkkila"}, {"code": 23164, "lon": 24.9021101313, "lam_code": 164, "name_tsa": "L_vt3_Kivihaka", "lat": 60.2119467628, "name_fi": "Tie 3 Kivihaka"}, {"code": 23152, "lon": 24.9031705143, "lam_code": 152, "name_tsa": "L_vt3_Pirkkola", "lat": 60.2264335506, "name_fi": "Tie 3 Pirkkola"}, {"code": 23165, "lon": 24.8774804, "lam_code": 165, "name_tsa": "L_vt3_Hakuninmaa", "lat": 60.2598334291, "name_fi": "Tie 3 Hakuninmaa"}, {"code": 23107, "lon": 24.8738360198, "lam_code": 107, "name_tsa": "L_vt3_Kaivoksela", "lat": 60.2686403806, "name_fi": "Tie 3 Kaivoksela"}, {"code": 23137, "lon": 24.8234941455, "lam_code": 137, "name_tsa": "L_vt3_Keimola", "lat": 60.3258223867, "name_fi": "Tie 3 Keimola"}, {"code": 23108, "lon": 24.8520446021, "lam_code": 108, "name_tsa": "L_vt3_Karhunkorpi", "lat": 60.4965034634, "name_fi": "Tie 3 Karhunkorpi"}, {"code": 23154, "lon": 24.9885765355, "lam_code": 154, "name_tsa": "L_vt4_Viikinmäki", "lat": 60.2209478756, "name_fi": "Tie 4 Viikinmäki"}, {"code": 23109, "lon": 25.0686699933, "lam_code": 109, "name_tsa": "L_vt4_Jakomäki", "lat": 60.2549208047, "name_fi": "Tie 4 Jakomäki"}, {"code": 23110, "lon": 25.2324694418, "lam_code": 110, "name_tsa": "L_vt4_Mäntsälä", "lat": 60.5900341379, "name_fi": "Tie 4 Mäntsälä"}, {"code": 23998, "lon": 25.2467271837, "lam_code": 998, "name_tsa": "L_vt4_Mäntsälä_E", "lat": 60.5988343176, "name_fi": "Tie 4 Mäntsälä, etelä"}, {"code": 23999, "lon": 25.3661007822, "lam_code": 999, "name_tsa": "L_vt4_Mäntsälä_P", "lat": 60.6785915519, "name_fi": "Tie 4 Mäntsälä, pohjoinen"}, {"code": 23142, "lon": 25.4421466818, "lam_code": 142, "name_tsa": "L_vt4_Levanto", "lat": 60.7366465213, "name_fi": "Tie 4 Mäntsälä, Levanto"}, {"code": 23111, "lon": 26.048894527, "lam_code": 111, "name_tsa": "L_vt6_Liljendal", "lat": 60.558197594, "name_fi": "Tie 6 Liljendal"}, {"code": 23179, "lon": 25.1120301048, "lam_code": 179, "name_tsa": "L_vt7_Fazerila", "lat": 60.2542243417, "name_fi": "Tie 7 Länsimäentie"}, {"code": 23141, "lon": 25.3800855984, "lam_code": 141, "name_tsa": "L_vt7_Box", "lat": 60.3017176, "name_fi": "Tie 7 Sipoo, Box"}, {"code": 23112, "lon": 25.5308039785, "lam_code": 112, "name_tsa": "L_vt7_Treksilä", "lat": 60.3551062486, "name_fi": "Tie 7 Porvoo, Treksilä"}, {"code": 23001, "lon": 25.6913792501, "lam_code": 1, "name_tsa": "L_vt7_Rita", "lat": 60.4179449367, "name_fi": "Tie 7 Porvoo, Rita"}, {"code": 23184, "lon": 25.7497190555, "lam_code": 184, "name_tsa": "L_vt7_Porvoo_Uusikrouvi", "lat": 60.425742952, "name_fi": "Tie 7 Porvoo_Uusikrouvi"}, {"code": 23185, "lon": 25.8233439253, "lam_code": 185, "name_tsa": "L_vt7_Porvoo_Lohijärvi", "lat": 60.4396764091, "name_fi": "Tie 7 Porvoo_Lohijärvi"}, {"code": 23186, "lon": 25.9135957055, "lam_code": 186, "name_tsa": "L_vt7_Loviisa_Gammelbyviken", "lat": 60.4905120716, "name_fi": "Tie 7 Loviisa_Gammelbyviken"}, {"code": 23187, "lon": 26.1189423846, "lam_code": 187, "name_tsa": "L_vt7_Loviisa_Kärrbacka", "lat": 60.4731159226, "name_fi": "Tie 7 Loviisa_Kärrbacka"}, {"code": 23188, "lon": 26.2118154785, "lam_code": 188, "name_tsa": "L_vt7_Loviisa", "lat": 60.4649963472, "name_fi": "Tie 7 Loviisa"}, {"code": 23189, "lon": 26.2787876973, "lam_code": 189, "name_tsa": "L_vt7_Loviisa_Itä", "lat": 60.4790593142, "name_fi": "Tie 7 Loviisa_Itä"}, {"code": 23124, "lon": 23.5205269949, "lam_code": 124, "name_tsa": "L_vt25_Dragsvik", "lat": 59.9981715066, "name_fi": "Tie 25 Dragsvik"}, {"code": 23114, "lon": 24.0138286987, "lam_code": 114, "name_tsa": "L_vt25_Virkkala", "lat": 60.2030617654, "name_fi": "Tie 25 Virkkala"}, {"code": 23129, "lon": 24.5281841445, "lam_code": 129, "name_tsa": "L_vt25_Selki", "lat": 60.4588077586, "name_fi": "Tie 25 Vihti, Selki"}, {"code": 23133, "lon": 24.8344036963, "lam_code": 133, "name_tsa": "L_vt25_Noppo", "lat": 60.5802074269, "name_fi": "Tie 25 Hyvinkää, Noppo"}, {"code": 23130, "lon": 25.0874457102, "lam_code": 130, "name_tsa": "L_vt25_Keravanjärvi", "lat": 60.6173519533, "name_fi": "Tie 25 Mäntsälä, Keravanjä"}, {"code": 23153, "lon": 24.943063328, "lam_code": 153, "name_tsa": "L_kt45_Oulunkylä", "lat": 60.2226390498, "name_fi": "Tie 45 Oulunkylä"}, {"code": 23131, "lon": 24.9667055773, "lam_code": 131, "name_tsa": "L_kt45_Tammisto", "lat": 60.2571972924, "name_fi": "Tie 45 Tammisto"}, {"code": 23127, "lon": 24.9861478694, "lam_code": 127, "name_tsa": "L_kt45_Rusutjärvi", "lat": 60.4324736526, "name_fi": "Tie 45 Tuusula, Rusutjärvi"}, {"code": 23125, "lon": 24.6074520808, "lam_code": 125, "name_tsa": "L_kt50_Bemböle", "lat": 60.2027173727, "name_fi": "Tie 50 Bemböle"}, {"code": 23140, "lon": 24.6962157085, "lam_code": 140, "name_tsa": "L_kt50_Järvenperä", "lat": 60.2390883271, "name_fi": "Tie 50 Järvenperä"}, {"code": 23183, "lon": 24.7141200749, "lam_code": 183, "name_tsa": "L_kt50_Järvenperä2", "lat": 60.2520364695, "name_fi": "Tie 50 Järvenperä 2"}, {"code": 23168, "lon": 24.7767822739, "lam_code": 168, "name_tsa": "L_kt50_Askisto", "lat": 60.2730417797, "name_fi": "Tie 50 Askisto"}, {"code": 23159, "lon": 24.8146018545, "lam_code": 159, "name_tsa": "L_kt50_Petikko", "lat": 60.2772984784, "name_fi": "Tie 50 Petikko"}, {"code": 23128, "lon": 24.8814128749, "lam_code": 128, "name_tsa": "L_kt50_Voutila", "lat": 60.2971446173, "name_fi": "Tie 50 Voutila"}, {"code": 23169, "lon": 24.9429327843, "lam_code": 169, "name_tsa": "L_kt50_Pakkala", "lat": 60.2955696246, "name_fi": "Tie 50 Pakkala"}, {"code": 23150, "lon": 24.9724470468, "lam_code": 150, "name_tsa": "L_kt50_Vantaanportti", "lat": 60.2903109962, "name_fi": "Tie 50 Vantaanportti"}, {"code": 23160, "lon": 25.0463678033, "lam_code": 160, "name_tsa": "L_kt50_Heidehof", "lat": 60.2803984199, "name_fi": "Tie 50 Heidehof"}, {"code": 23182, "lon": 25.0977912569, "lam_code": 182, "name_tsa": "L_kt50_Hakunila", "lat": 60.2713192613, "name_fi": "Tie 50 Hakunila"}, {"code": 23101, "lon": 24.8476835682, "lam_code": 101, "name_tsa": "L_kt51_Hanasaari", "lat": 60.1652024065, "name_fi": "Tie 51 Hanasaari"}, {"code": 23102, "lon": 24.6428314328, "lam_code": 102, "name_tsa": "L_kt51_Soukka", "lat": 60.1585895864, "name_fi": "Tie 51 Soukka"}, {"code": 23143, "lon": 24.5544204187, "lam_code": 143, "name_tsa": "L_kt51_Sundsberg", "lat": 60.141508557, "name_fi": "Tie 51 Sundsberg"}, {"code": 23156, "lon": 24.4964274427, "lam_code": 156, "name_tsa": "L_kt51_Jorvas", "lat": 60.1247755198, "name_fi": "Tie 51 Jorvas"}, {"code": 23134, "lon": 24.075677456, "lam_code": 134, "name_tsa": "L_kt51_Inkoo", "lat": 60.060816002, "name_fi": "Tie 51 Inkoo"}, {"code": 23115, "lon": 25.5960872943, "lam_code": 115, "name_tsa": "L_kt55_Saksala", "lat": 60.4163551193, "name_fi": "Tie 55 Saksala"}, {"code": 23197, "lon": 24.908230851, "lam_code": 197, "name_tsa": "L_st100_Kivihaan_tunneli", "lat": 60.2082350808, "name_fi": "Tie 100, Hakamäen tunneli"}, {"code": 23118, "lon": 24.8259881547, "lam_code": 118, "name_tsa": "L_st101_Keilaniemi", "lat": 60.1727435936, "name_fi": "Tie 101 Keilaniemi"}, {"code": 23116, "lon": 24.8154104541, "lam_code": 116, "name_tsa": "L_st101_Leppävaara", "lat": 60.2130977543, "name_fi": "Tie 101 Leppävaara"}, {"code": 23126, "lon": 24.8438564678, "lam_code": 126, "name_tsa": "L_st101_Konala", "lat": 60.2285276331, "name_fi": "Tie 101 Konala"}, {"code": 23145, "lon": 24.8773719871, "lam_code": 145, "name_tsa": "L_st101_Kannelmäki", "lat": 60.234152009, "name_fi": "Tie 101 Kannelmäki"}, {"code": 23146, "lon": 24.9038010422, "lam_code": 146, "name_tsa": "L_st101_Länsi-Pakila", "lat": 60.2374823845, "name_fi": "Tie 101 Länsi-Pakila"}, {"code": 23147, "lon": 24.9410701857, "lam_code": 147, "name_tsa": "L_st101_Pakila", "lat": 60.2428982019, "name_fi": "Tie 101 Pakila"}, {"code": 23148, "lon": 24.9758107956, "lam_code": 148, "name_tsa": "L_st101_Pukinmäki", "lat": 60.2446811497, "name_fi": "Tie 101 Pukinmäki"}, {"code": 23149, "lon": 25.01657514, "lam_code": 149, "name_tsa": "L_st101_Malmi", "lat": 60.2425213434, "name_fi": "Tie 101 Malmi"}, {"code": 23162, "lon": 24.7511837719, "lam_code": 162, "name_tsa": "L_st102_Olarinluoma", "lat": 60.176192925, "name_fi": "Tie 102 Olarinluoma"}, {"code": 23163, "lon": 24.7461089332, "lam_code": 163, "name_tsa": "L_st102_Kokinkylä", "lat": 60.192356084, "name_fi": "Tie 102 Kokinkylä"}, {"code": 23195, "lon": 25.1538198281, "lam_code": 195, "name_tsa": "L_st103_Satamatie", "lat": 60.2409360544, "name_fi": "Tie 103, Satamatie"}, {"code": 23105, "lon": 24.1354923899, "lam_code": 105, "name_tsa": "L_st110_Hiidenvesi", "lat": 60.37051543, "name_fi": "Tie 110 Hiidenvesi"}, {"code": 23151, "lon": 24.8772479072, "lam_code": 151, "name_tsa": "L_st120_Pitäjänmäki", "lat": 60.2232278219, "name_fi": "Tie 120 Pitäjänmäki"}, {"code": 23123, "lon": 24.8289896031, "lam_code": 123, "name_tsa": "L_st120_Pähkinärinne", "lat": 60.2515131318, "name_fi": "Tie 120 Pähkinärinne"}, {"code": 23138, "lon": 24.7442255227, "lam_code": 138, "name_tsa": "L_st120_Odilampi", "lat": 60.3033022885, "name_fi": "Tie 120 Odilampi"}, {"code": 23136, "lon": 25.1916806485, "lam_code": 136, "name_tsa": "L_st140_Arola", "lat": 60.545258147, "name_fi": "Tie 140 Arola"}, {"code": 23155, "lon": 24.9951003668, "lam_code": 155, "name_tsa": "L_st170_Kulosaari", "lat": 60.1912810825, "name_fi": "Tie 170 Kulosaari"}, {"code": 23135, "lon": 25.7450219044, "lam_code": 135, "name_tsa": "L_st170_Ilola", "lat": 60.4476992326, "name_fi": "Tie 170 Ilola"}, {"code": 23158, "lon": 25.992136884, "lam_code": 158, "name_tsa": "L_st170_Hagaböle", "lat": 60.4861359627, "name_fi": "Tie 170 Hagaböle"}, {"code": 23121, "lon": 26.0242040973, "lam_code": 121, "name_tsa": "L_yt11888_Liljendal2", "lat": 60.550818264, "name_fi": "Tie 11888 Liljendal"}, {"code": 23196, "lon": 25.1593381034, "lam_code": 196, "name_tsa": "L_Niinisaarentie", "lat": 60.2204994312, "name_fi": "Helsinki, Niinisaarentie"}, {"code": 23199, "lon": 24.7709691729, "lam_code": 199, "name_tsa": "L_Olari", "lat": 60.1707964286, "name_fi": "Merituulentie, Espoo"}, {"code": 24604, "lon": 23.7258030941, "lam_code": 1604, "name_tsa": "L_vt1_Lahnajärvi", "lat": 60.3761012141, "name_fi": "Tie 1 Lahnajärvi"}, {"code": 24603, "lon": 23.6316022152, "lam_code": 1603, "name_tsa": "L_vt1_Syvälampi", "lat": 60.3778731637, "name_fi": "Tie 1 Syvälampi"}, {"code": 24602, "lon": 23.4779288851, "lam_code": 1602, "name_tsa": "L_vt1_Kruusila", "lat": 60.380353192, "name_fi": "Tie 1 Salo, Kruusila"}, {"code": 24601, "lon": 23.3774408174, "lam_code": 1601, "name_tsa": "L_vt1_Lakiamäki", "lat": 60.3720268087, "name_fi": "Tie 1 Lakiamäki"}, {"code": 23248, "lon": 23.3047015917, "lam_code": 248, "name_tsa": "L_vt1_Muurla", "lat": 60.384738465, "name_fi": "Tie 1 Muurla"}, {"code": 23247, "lon": 23.1499870355, "lam_code": 247, "name_tsa": "L_vt1_Isokylä_läntinen", "lat": 60.4151180259, "name_fi": "Tie 1 Isokylä"}, {"code": 23246, "lon": 23.1174817192, "lam_code": 246, "name_tsa": "L_vt1_Halikko", "lat": 60.4172835887, "name_fi": "Tie 1 Halikko"}, {"code": 23245, "lon": 22.9688629947, "lam_code": 245, "name_tsa": "L_vt1_Hajala", "lat": 60.4287212513, "name_fi": "Tie 1 Hajala"}, {"code": 23244, "lon": 22.7088739557, "lam_code": 244, "name_tsa": "L_vt1_Vista", "lat": 60.4313603854, "name_fi": "Tie 1 Vista"}, {"code": 23243, "lon": 22.6853290322, "lam_code": 243, "name_tsa": "L_vt1_Paimionmäki", "lat": 60.4257791907, "name_fi": "Tie 1 Paimionmäki"}, {"code": 23242, "lon": 22.6567277152, "lam_code": 242, "name_tsa": "L_vt1_Paimionjoki", "lat": 60.4292453543, "name_fi": "Tie 1 Paimionjoki"}, {"code": 23227, "lon": 22.5106795864, "lam_code": 227, "name_tsa": "L_vt1_Kirismäki", "lat": 60.442965996, "name_fi": "Tie 1 Piikkiö, Kirismäki"}, {"code": 23240, "lon": 22.4746820875, "lam_code": 240, "name_tsa": "L_vt1_Piikkiö", "lat": 60.4390214356, "name_fi": "Tie 1 Piikkiö"}, {"code": 23239, "lon": 22.4025956583, "lam_code": 239, "name_tsa": "L_vt1_Kaarina", "lat": 60.4255142911, "name_fi": "Tie 1 Kaarina"}, {"code": 23238, "lon": 22.3617362749, "lam_code": 238, "name_tsa": "L_vt1_Kurkela_itäinen", "lat": 60.4216849497, "name_fi": "Tie 1 Kurkela I"}, {"code": 23237, "lon": 22.3350548146, "lam_code": 237, "name_tsa": "L_vt1_Kurkela_läntinen", "lat": 60.4238094185, "name_fi": "Tie 1 Kurkela L"}, {"code": 23236, "lon": 22.328668186, "lam_code": 236, "name_tsa": "L_vt1_Huhkola", "lat": 60.4258426907, "name_fi": "Tie 1 Huhkola"}, {"code": 23235, "lon": 22.3065063404, "lam_code": 235, "name_tsa": "L_vt1_Kupittaa", "lat": 60.4452541755, "name_fi": "Tie 1 Kupittaa"}, {"code": 23249, "lon": 22.186360073, "lam_code": 249, "name_tsa": "L_vt8_Ihala", "lat": 60.4762563921, "name_fi": "Tie 8 Ihala"}, {"code": 23205, "lon": 22.1655998145, "lam_code": 205, "name_tsa": "L_vt8_Raisio", "lat": 60.4949782975, "name_fi": "Tie 8 Raisio"}, {"code": 23250, "lon": 22.0896824081, "lam_code": 250, "name_tsa": "L_vt8_Masku", "lat": 60.58316348, "name_fi": "Tie 8 Masku"}, {"code": 23206, "lon": 21.5817596858, "lam_code": 206, "name_tsa": "L_vt8_Pyhäranta", "lat": 60.9851685874, "name_fi": "Tie 8 Pyhäranta"}, {"code": 23208, "lon": 22.4685673205, "lam_code": 208, "name_tsa": "L_vt9_Aura", "lat": 60.5933594082, "name_fi": "Tie 9 Aura"}, {"code": 23253, "lon": 22.3682179012, "lam_code": 253, "name_tsa": "L_vt10_Satiaismäki", "lat": 60.4761343355, "name_fi": "Tie 10 Lieto, Satiaismäki"}, {"code": 23230, "lon": 22.4276924461, "lam_code": 230, "name_tsa": "L_vt10_Lieto", "lat": 60.4962761113, "name_fi": "Tie 10 Lieto"}, {"code": 23209, "lon": 22.9230421332, "lam_code": 209, "name_tsa": "L_vt10_Marttila", "lat": 60.6164090731, "name_fi": "Tie 10 Marttila"}, {"code": 23231, "lon": 22.0856055769, "lam_code": 231, "name_tsa": "L_kt40_Vanto", "lat": 60.4689934519, "name_fi": "Tie 40 Raisio, Vanto"}, {"code": 23251, "lon": 22.1442109332, "lam_code": 251, "name_tsa": "L_kt40_Krookila", "lat": 60.4706413155, "name_fi": "Tie 40 Raisio, Krookila"}, {"code": 23233, "lon": 22.2205594787, "lam_code": 233, "name_tsa": "L_kt40_Hauninen", "lat": 60.4923662181, "name_fi": "Tie 40 Raisio, Hauninen"}, {"code": 23234, "lon": 22.3150514564, "lam_code": 234, "name_tsa": "L_kt40_Oriketo", "lat": 60.4861998048, "name_fi": "Tie 40 Turku, Oriketo"}, {"code": 23229, "lon": 22.4215400472, "lam_code": 229, "name_tsa": "L_kt40_Tuulissuo", "lat": 60.460972464, "name_fi": "Tie 40 Tuulisuo"}, {"code": 23201, "lon": 23.3562169701, "lam_code": 201, "name_tsa": "L_st110_Muurla1", "lat": 60.3673661571, "name_fi": "Tie 110 Muurla"}, {"code": 23228, "lon": 22.7898559991, "lam_code": 228, "name_tsa": "L_st110_Kevola", "lat": 60.4103281241, "name_fi": "Tie 110 Kevola"}, {"code": 23254, "lon": 22.3585843204, "lam_code": 254, "name_tsa": "L_st180_Kuusisto", "lat": 60.3674409252, "name_fi": "Tie 180 Kuusisto"}, {"code": 23225, "lon": 22.1819321226, "lam_code": 225, "name_tsa": "L_st180_Parainen", "lat": 60.2424766869, "name_fi": "Tie 180 Parainen"}, {"code": 23255, "lon": 22.0433468706, "lam_code": 255, "name_tsa": "L_st180_Simonby", "lat": 60.1937310398, "name_fi": "Tie 180 Simonby"}, {"code": 23252, "lon": 22.183681359, "lam_code": 252, "name_tsa": "L_st185_Artukainen", "lat": 60.4607960266, "name_fi": "Tie 185 Turku, Artukainen"}, {"code": 23257, "lon": 22.2011531384, "lam_code": 257, "name_tsa": "L_yt1851_Turku_Härkämäki", "lat": 60.4627406192, "name_fi": "Tie 42505 Turku, Suikkilantie"}, {"code": 23221, "lon": 21.9864595649, "lam_code": 221, "name_tsa": "L_vt2_Nakkila", "lat": 61.3615431444, "name_fi": "Tie 2 Nakkila"}, {"code": 23232, "lon": 21.8166844735, "lam_code": 232, "name_tsa": "L_vt2_Porin_lentokent", "lat": 61.4535382791, "name_fi": "Tie 2 Pori, lentokenttä"}, {"code": 23223, "lon": 21.6264515137, "lam_code": 223, "name_tsa": "L_vt8_Eurajoki", "lat": 61.1697120193, "name_fi": "Tie 8 Eurajoki"}, {"code": 23207, "lon": 21.8084006935, "lam_code": 207, "name_tsa": "L_vt8_Pori", "lat": 61.5449956005, "name_fi": "Tie 8 Pori"}, {"code": 23224, "lon": 22.4037268591, "lam_code": 224, "name_tsa": "L_vt11_Kullaa", "lat": 61.4698546073, "name_fi": "Tie 11 Kullaa"}, {"code": 23211, "lon": 21.7283844639, "lam_code": 211, "name_tsa": "L_vt12_Lappi_tl", "lat": 61.1072429054, "name_fi": "Tie 12 Lappi tl"}, {"code": 23226, "lon": 22.2424718364, "lam_code": 226, "name_tsa": "L_vt23_Kankaanpää", "lat": 61.7904002677, "name_fi": "Tie 23 Kankaanpää"}, {"code": 23403, "lon": 23.2869427818, "lam_code": 403, "name_tsa": "L_vt2_Humppila", "lat": 60.966470548, "name_fi": "Tie 2 Humppila"}, {"code": 23429, "lon": 24.7340125117, "lam_code": 429, "name_tsa": "L_vt3_Riihimäki_Herajoki", "lat": 60.7127971602, "name_fi": "Tie 3 Riihimäki"}, {"code": 23432, "lon": 24.593886617, "lam_code": 432, "name_tsa": "L_vt3_Janakkala", "lat": 60.8560388696, "name_fi": "Tie 3 Janakkala"}, {"code": 23465, "lon": 24.4594819966, "lam_code": 465, "name_tsa": "L_vt3_Hämeenlinna_E", "lat": 60.9896259926, "name_fi": "Tie 3 Hämeenlinna, etelä"}, {"code": 23466, "lon": 24.4513301186, "lam_code": 466, "name_tsa": "L_vt3_Hämeenlinna_P", "lat": 61.0001973509, "name_fi": "Tie 3 Hämeenlinna, pohjoinen"}, {"code": 23437, "lon": 24.414192964, "lam_code": 437, "name_tsa": "L_vt3_Hlinna_Mo3", "lat": 61.0135032693, "name_fi": "Tie 3 Hämeenlinna"}, {"code": 23425, "lon": 23.7865502423, "lam_code": 425, "name_tsa": "L_vt10_Tammela", "lat": 60.8285517343, "name_fi": "Tie 10 Tammela"}, {"code": 23405, "lon": 24.6663173532, "lam_code": 405, "name_tsa": "L_vt10_Hämeenlinna", "lat": 61.0462773254, "name_fi": "Tie 10 Hämeenlinna"}, {"code": 23426, "lon": 24.6851061152, "lam_code": 426, "name_tsa": "L_vt12_Hauho", "lat": 61.1583778318, "name_fi": "Tie 12 Hauho"}, {"code": 23428, "lon": 24.3953136441, "lam_code": 428, "name_tsa": "L_kt54_Loppi", "lat": 60.733455447, "name_fi": "Tie 54 Loppi"}, {"code": 23408, "lon": 24.9744534634, "lam_code": 408, "name_tsa": "L_kt54_Hausjärvi", "lat": 60.7911187961, "name_fi": "Tie 54 Hausjärvi"}, {"code": 23440, "lon": 23.8363219539, "lam_code": 440, "name_tsa": "L_vt3_Lempäälä_Lippo", "lat": 61.2528524336, "name_fi": "Tie 3 Lempäälä"}, {"code": 23401, "lon": 23.7700021186, "lam_code": 401, "name_tsa": "L_vt3_Lempäälä_Sääksjärvi", "lat": 61.409714619, "name_fi": "Tie 3 Lempäälä, Kulju"}, {"code": 23449, "lon": 23.7471616444, "lam_code": 449, "name_tsa": "L_vt3_Tre_Sarankulma", "lat": 61.4605385665, "name_fi": "Tie 3 Sarankulma"}, {"code": 23460, "lon": 23.635343207, "lam_code": 460, "name_tsa": "L_vt3_Pirkkala_Huovi", "lat": 61.4526452969, "name_fi": "Tie 3 Pirkkala, Huovi"}, {"code": 23463, "lon": 23.6177533542, "lam_code": 463, "name_tsa": "L_vt3_Pirkkala_Sankila", "lat": 61.4593800467, "name_fi": "Tie 3 Pirkkala, Sankila"}, {"code": 23462, "lon": 23.5881387322, "lam_code": 462, "name_tsa": "L_vt3_Nokia_Rajasalmi", "lat": 61.47808667, "name_fi": "Tie 3 Nokia, Rajasalmi"}, {"code": 23450, "lon": 23.5652257125, "lam_code": 450, "name_tsa": "L_vt3_Myllypuro", "lat": 61.5154677821, "name_fi": "Tie 3 Myllypuro"}, {"code": 23203, "lon": 23.4304412083, "lam_code": 203, "name_tsa": "L_vt3_Hämeenkyrö", "lat": 61.5861178622, "name_fi": "Tie 3 Hämeenkyrö"}, {"code": 23204, "lon": 22.9765868945, "lam_code": 204, "name_tsa": "L_vt3_Ikaalinen", "lat": 61.9104509924, "name_fi": "Tie 3 Ikaalinen"}, {"code": 23445, "lon": 23.6500610635, "lam_code": 445, "name_tsa": "L_vt9_Kylmäkoski", "lat": 61.1139471037, "name_fi": "Tie 9 Kylmäkoski"}, {"code": 23435, "lon": 23.8093632261, "lam_code": 435, "name_tsa": "L_vt9_Tre_Karkuvuori", "lat": 61.4622708882, "name_fi": "Tie 9 Karkuvuori"}, {"code": 23451, "lon": 23.9399142157, "lam_code": 451, "name_tsa": "L_vt9_Tre_Aitovuori", "lat": 61.5241407485, "name_fi": "Tie 9 Aitovuori"}, {"code": 23404, "lon": 24.0637188077, "lam_code": 404, "name_tsa": "L_vt9_Kangasala_Suinula", "lat": 61.5545140786, "name_fi": "Tie 9 Suinula"}, {"code": 23448, "lon": 24.7038442566, "lam_code": 448, "name_tsa": "L_vt9_Längelmäki", "lat": 61.7336753222, "name_fi": "Tie 9 Längelmäki, Solttila"}, {"code": 23406, "lon": 23.3673824687, "lam_code": 406, "name_tsa": "L_vt11_Nokia_Linnavuori", "lat": 61.50189936, "name_fi": "Tie 11 Nokia"}, {"code": 23210, "lon": 22.8385080251, "lam_code": 210, "name_tsa": "L_vt12_Vammala", "lat": 61.3135605426, "name_fi": "Tie 12 Vammala"}, {"code": 23438, "lon": 23.6985857764, "lam_code": 438, "name_tsa": "L_vt12_Tre_Paasikiventie", "lat": 61.5089057807, "name_fi": "Tie 12 Uittotunneli"}, {"code": 23453, "lon": 23.7408546739, "lam_code": 453, "name_tsa": "L_vt12_Tre_Mustalahti", "lat": 61.5023575089, "name_fi": "Tie 12 Särkänniemi"}, {"code": 23454, "lon": 23.7597217736, "lam_code": 454, "name_tsa": "L_vt12_Tre_Tampella", "lat": 61.5064373541, "name_fi": "Tie 12 Tampella"}, {"code": 23457, "lon": 23.786797323, "lam_code": 457, "name_tsa": "L_vt12_Tre_Petsamo", "lat": 61.5064763357, "name_fi": "Tie 12 Petsamo"}, {"code": 23439, "lon": 23.8219542316, "lam_code": 439, "name_tsa": "L_vt12_Tre_Teiskontie", "lat": 61.5041648933, "name_fi": "Tie 12 Tampere, Keskussair"}, {"code": 23458, "lon": 23.8524068562, "lam_code": 458, "name_tsa": "L_vt12_Tre_Ruotula", "lat": 61.5131733254, "name_fi": "Tie 12 Ruotula"}, {"code": 23431, "lon": 23.9721708867, "lam_code": 431, "name_tsa": "L_vt12_Kangasala_Suorama", "lat": 61.4782423885, "name_fi": "Tie 12 Suorama"}, {"code": 23456, "lon": 23.6790995652, "lam_code": 456, "name_tsa": "L_kt65_Tre_Lielahti", "lat": 61.5117390478, "name_fi": "Tie 65 Tampere, Lielahti"}, {"code": 23455, "lon": 23.6530496303, "lam_code": 455, "name_tsa": "L_kt65_Tre_Epilänharju", "lat": 61.5176703528, "name_fi": "Tie 65 Tampere, Epilänharju"}, {"code": 23421, "lon": 23.6066172954, "lam_code": 421, "name_tsa": "L_kt65_Ylöjärvi", "lat": 61.5435337612, "name_fi": "Tie 65 Ylöjärvi"}, {"code": 23409, "lon": 24.030835698, "lam_code": 409, "name_tsa": "L_kt66_Ruovesi", "lat": 62.0105616348, "name_fi": "Tie 66 Ruovesi"}, {"code": 23402, "lon": 24.0568131268, "lam_code": 402, "name_tsa": "L_st130_Jutikkala", "lat": 61.1496611872, "name_fi": "Tie 130 Iittala"}, {"code": 23433, "lon": 23.955488327, "lam_code": 433, "name_tsa": "L_st130_Pispantie", "lat": 61.285625313, "name_fi": "Tie 130 Valkeakoski"}, {"code": 23422, "lon": 23.7402087595, "lam_code": 422, "name_tsa": "L_st190_Viiala", "lat": 61.2383904408, "name_fi": "Tie 190 Viiala"}, {"code": 23464, "lon": 23.7743078262, "lam_code": 464, "name_tsa": "L_yt3495_Rautaharkko", "lat": 61.4772945373, "name_fi": "Tie 3495 Rautaharkko"}, {"code": 23436, "lon": 23.5869415884, "lam_code": 436, "name_tsa": "L_yt13782_Nokia_Rajasalmi", "lat": 61.478380169, "name_fi": "Tie 13782 Nokia, Rajasalmi"}, {"code": 23443, "lon": 23.7011155898, "lam_code": 443, "name_tsa": "L_Tre_Pispalan_valtatie", "lat": 61.5061546184, "name_fi": "Tampere, Pispalan valtatie"}, {"code": 23424, "lon": 25.6105144899, "lam_code": 424, "name_tsa": "L_vt4_Renkomäki", "lat": 60.9070872361, "name_fi": "Tie 4 Renkomäki"}, {"code": 23461, "lon": 25.9056600259, "lam_code": 461, "name_tsa": "L_vt4_Vierumäki", "lat": 61.0985078663, "name_fi": "Tie 4 Vierumäki"}, {"code": 23628, "lon": 26.0703749844, "lam_code": 628, "name_tsa": "L_vt4_Murhamäki", "lat": 61.276963267, "name_fi": "Tie 4 Heinola, Murhamäki"}, {"code": 23442, "lon": 26.0474149692, "lam_code": 442, "name_tsa": "L_vt4_Heinola_Lusi", "lat": 61.3366076258, "name_fi": "Tie 4 Heinola, Lusi"}, {"code": 23623, "lon": 25.9802435978, "lam_code": 623, "name_tsa": "L_vt4_Hartola", "lat": 61.4912532393, "name_fi": "Tie 4 Hartola"}, {"code": 23407, "lon": 25.2826529889, "lam_code": 407, "name_tsa": "L_vt12_Hollola", "lat": 61.0036918747, "name_fi": "Tie 12 Hollola"}, {"code": 23446, "lon": 25.5950407773, "lam_code": 446, "name_tsa": "L_vt12_Lahti_Kärpäsen", "lat": 60.9813120311, "name_fi": "Tie 12 Lahti, Kärpäsenmäki"}, {"code": 23447, "lon": 25.6983949295, "lam_code": 447, "name_tsa": "L_vt12_Lahti_Joutjärvi", "lat": 60.973424094, "name_fi": "Tie 12 Lahti, Joutjärvi"}, {"code": 23430, "lon": 25.6346437065, "lam_code": 430, "name_tsa": "L_vt24_Asikkala", "lat": 61.1260144558, "name_fi": "Tie 24 Asikkala"}, {"code": 23441, "lon": 25.7458987805, "lam_code": 441, "name_tsa": "L_st140_Hollola", "lat": 61.0380924612, "name_fi": "Tie 140 Hollola"}, {"code": 23521, "lon": 26.4848120145, "lam_code": 521, "name_tsa": "L_vt6_Elimäki", "lat": 60.7761999502, "name_fi": "Tie 6 Elimäki"}, {"code": 23594, "lon": 26.5480576793, "lam_code": 594, "name_tsa": "L_vt6_Hevossuo", "lat": 60.8392130857, "name_fi": "Tie 6 Hevossuo"}, {"code": 23595, "lon": 26.6313859114, "lam_code": 595, "name_tsa": "L_vt6_Puhjo", "lat": 60.8718427724, "name_fi": "Tie 6 Kuusankoski, Puhjo"}, {"code": 23596, "lon": 26.7579372795, "lam_code": 596, "name_tsa": "L_vt6_Käyrälampi", "lat": 60.8836578928, "name_fi": "Tie 6 Kouvola, Käyrälampi"}, {"code": 23529, "lon": 26.8193767808, "lam_code": 529, "name_tsa": "L_vt6_Utti", "lat": 60.886456789, "name_fi": "Tie 6 Utti"}, {"code": 23592, "lon": 27.0022121451, "lam_code": 592, "name_tsa": "L_vt6_Metso", "lat": 60.9057640682, "name_fi": "Tie 6 Metso"}, {"code": 23578, "lon": 26.4604401662, "lam_code": 578, "name_tsa": "L_vt7_Ahvenkoski_Itä", "lat": 60.490018843, "name_fi": "Tie 7 Ahvenkoski2"}, {"code": 23575, "lon": 26.5466444745, "lam_code": 575, "name_tsa": "L_vt7_Pyhtää2", "lat": 60.4862362842, "name_fi": "Tie 7 Pyhtää2"}, {"code": 23579, "lon": 26.7018407983, "lam_code": 579, "name_tsa": "L_vt7_Siltakylä2", "lat": 60.5000066436, "name_fi": "Tie 7 Pyhtää, Siltakylä2"}, {"code": 23580, "lon": 26.8112036906, "lam_code": 580, "name_tsa": "L_vt7_Mokra", "lat": 60.5009513726, "name_fi": "Tie 7 Pyhtää, Mokra"}, {"code": 23583, "lon": 26.8553103663, "lam_code": 583, "name_tsa": "L_vt7_Petäjäsuo", "lat": 60.4973791213, "name_fi": "Tie 7 Petäjäsuo"}, {"code": 23599, "lon": 26.8827285882, "lam_code": 599, "name_tsa": "L_vt7_Leppäsaari", "lat": 60.5008627879, "name_fi": "Tie 7 Leppäsaari"}, {"code": 23574, "lon": 26.9025403581, "lam_code": 574, "name_tsa": "L_vt7_Kyminlinna", "lat": 60.5050627447, "name_fi": "Tie 7 Kyminlinna"}, {"code": 23576, "lon": 26.9271167117, "lam_code": 576, "name_tsa": "L_vt7_Karhula_Länsi", "lat": 60.5142814621, "name_fi": "Tie 7 Kotka, Karhula-Länsi"}, {"code": 23577, "lon": 26.9545265315, "lam_code": 577, "name_tsa": "L_vt7_Otsola_Länsi", "lat": 60.5264326178, "name_fi": "Tie 7 Kotka, Otsola-Länsi"}, {"code": 23572, "lon": 26.9960801086, "lam_code": 572, "name_tsa": "L_vt7_Salminlahti", "lat": 60.5504758244, "name_fi": "Tie 7 Salminlahti"}, {"code": 23573, "lon": 27.0879475796, "lam_code": 573, "name_tsa": "L_vt7_Hamina_Summa", "lat": 60.5692030344, "name_fi": "Tie 7 Hamina, Summa"}, {"code": 23302, "lon": 27.129077503, "lam_code": 302, "name_tsa": "L_vt7_Hamina_Lankamalmi", "lat": 60.5719799133, "name_fi": "Tie 7 Hamina_Lnkamalmi"}, {"code": 23303, "lon": 27.1428301088, "lam_code": 303, "name_tsa": "L_vt7_Hamina_Ruissalo", "lat": 60.5794539889, "name_fi": "Tie 7 Hamina_Ruissalo"}, {"code": 23304, "lon": 27.1663815895, "lam_code": 304, "name_tsa": "L_vt7_Hamina_Husula", "lat": 60.5922480289, "name_fi": "Tie 7 Hamina_Hususla"}, {"code": 23555, "lon": 27.7185173915, "lam_code": 555, "name_tsa": "L_vt7_Tallinmäki", "lat": 60.5866770004, "name_fi": "Tie 7 Hamina, Tallinmäki"}, {"code": 23305, "lon": 27.2561493817, "lam_code": 305, "name_tsa": "L_vt7_Hamina_Kolsila_itä", "lat": 60.5951499241, "name_fi": "Tie 7 Hamina_Kolsila_itä"}, {"code": 23525, "lon": 27.3828084721, "lam_code": 525, "name_tsa": "L_vt7_Lelu", "lat": 60.5664840299, "name_fi": "Tie 7 Hamina, Lelu"}, {"code": 23551, "lon": 27.7185173915, "lam_code": 551, "name_tsa": "L_vt7_LAM030706", "lat": 60.5866770004, "name_fi": "Tie 7 Virolahti, Harjula"}, {"code": 23550, "lon": 27.7185173915, "lam_code": 550, "name_tsa": "L_vt7_Vaahterikonsuo", "lat": 60.5866770004, "name_fi": "Tie 7 Virolahti, Vaahterikonsuo"}, {"code": 23540, "lon": 27.7174253167, "lam_code": 540, "name_tsa": "L_vt7_Virojoki", "lat": 60.586817547, "name_fi": "Tie 7 Virolahti, Virojoki"}, {"code": 23542, "lon": 27.771274589, "lam_code": 542, "name_tsa": "L_vt7_Turkkisuo", "lat": 60.5937906561, "name_fi": "Tie 7 Virolahti, Turkkisuo"}, {"code": 23541, "lon": 27.8134744578, "lam_code": 541, "name_tsa": "L_vt7_Mestarmäki", "lat": 60.5998797201, "name_fi": "Tie 7 Virolahti, Mestarmäki"}, {"code": 23581, "lon": 27.8673123173, "lam_code": 581, "name_tsa": "L_vt7_Vaalimaa", "lat": 60.6041386514, "name_fi": "Tie 7 Virolahti, Vaalimaa"}, {"code": 23598, "lon": 27.8695384035, "lam_code": 598, "name_tsa": "L_vt7_Vaalimaa_rask", "lat": 60.6060995722, "name_fi": "Tie 7 Virolahti, Vaalimaa, raskas"}, {"code": 23502, "lon": 26.177856552, "lam_code": 502, "name_tsa": "L_vt12_Iitti", "lat": 60.9137675419, "name_fi": "Tie 12 Iitti"}, {"code": 23590, "lon": 26.4307518024, "lam_code": 590, "name_tsa": "L_vt12_Tillola", "lat": 60.8800768352, "name_fi": "Tie 12 Iitti, Tillola"}, {"code": 23586, "lon": 26.9227920162, "lam_code": 586, "name_tsa": "L_vt15_Kotkansaari", "lat": 60.4642682307, "name_fi": "Tie 15 Kotka, Kotkansaari"}, {"code": 23530, "lon": 26.9236521378, "lam_code": 530, "name_tsa": "L_vt15_Juurikorpi", "lat": 60.624436634, "name_fi": "Tie 15 Juurikorpi"}, {"code": 23591, "lon": 26.7883280064, "lam_code": 591, "name_tsa": "L_vt15_Kiehuva", "lat": 60.8176838906, "name_fi": "Tie 15 Kouvola, Kiehuva"}, {"code": 23527, "lon": 27.061939992, "lam_code": 527, "name_tsa": "L_vt15_Valkeala", "lat": 61.0766535491, "name_fi": "Tie 15 Valkeala"}, {"code": 23503, "lon": 27.4035411932, "lam_code": 503, "name_tsa": "L_vt26_Saaramaa", "lat": 60.8465137604, "name_fi": "Tie 26 Kouvola, Saaramaa"}, {"code": 23584, "lon": 26.6822165348, "lam_code": 584, "name_tsa": "L_st170_Pyhtää", "lat": 60.4888996525, "name_fi": "Tie 170 Pyhtää"}, {"code": 23501, "lon": 26.758357778, "lam_code": 501, "name_tsa": "L_st170_Siltakylä", "lat": 60.4959009798, "name_fi": "Tie 170 Pyhtää, Siltakylä"}, {"code": 23587, "lon": 27.3858382346, "lam_code": 587, "name_tsa": "L_vt6_Somerharju", "lat": 60.9150602146, "name_fi": "Tie 6 Somerharju"}, {"code": 23522, "lon": 27.6600698383, "lam_code": 522, "name_tsa": "L_vt6_Luumäki", "lat": 60.9340527628, "name_fi": "Tie 6 Luumäki"}, {"code": 23556, "lon": 28.0608872467, "lam_code": 556, "name_tsa": "L_vt6_Selkäharju", "lat": 61.0283999499, "name_fi": "Tie 6 Selkäharju"}, {"code": 23557, "lon": 28.12647468, "lam_code": 557, "name_tsa": "L_vt6_Lavola", "lat": 61.036667722, "name_fi": "Tie 6 Lavola"}, {"code": 23558, "lon": 28.1612435595, "lam_code": 558, "name_tsa": "L_vt6_Mattila", "lat": 61.0412935258, "name_fi": "Tie 6 Mattila"}, {"code": 23559, "lon": 28.199368198, "lam_code": 559, "name_tsa": "L_vt6_Myllymäki", "lat": 61.042809886, "name_fi": "Tie 6 Myllymäki"}, {"code": 23560, "lon": 28.2462469037, "lam_code": 560, "name_tsa": "L_vt6_Karhuvuori", "lat": 61.0511847088, "name_fi": "Tie 6 Karhuvuori"}, {"code": 23561, "lon": 28.2827554132, "lam_code": 561, "name_tsa": "L_vt6_Hartikkala", "lat": 61.061797258, "name_fi": "Tie 6 Hartikkala"}, {"code": 23562, "lon": 28.3102150856, "lam_code": 562, "name_tsa": "L_vt6_Mälkiä", "lat": 61.0717069643, "name_fi": "Tie 6 Mälkiä"}, {"code": 23534, "lon": 28.4052953865, "lam_code": 534, "name_tsa": "L_vt6_Muukko", "lat": 61.1014513631, "name_fi": "Tie 6 Muukko"}, {"code": 23563, "lon": 28.4955565527, "lam_code": 563, "name_tsa": "L_vt6_Joutseno", "lat": 61.1204800059, "name_fi": "Tie 6 Joutseno"}, {"code": 23564, "lon": 28.6794029397, "lam_code": 564, "name_tsa": "L_vt6_Vesivalo", "lat": 61.1658607551, "name_fi": "Tie 6 Vesivalo"}, {"code": 23531, "lon": 28.8712658174, "lam_code": 531, "name_tsa": "L_vt6_Vuoksenniska", "lat": 61.2368293114, "name_fi": "Tie 6 Vuoksenniska"}, {"code": 23524, "lon": 29.3079019457, "lam_code": 524, "name_tsa": "L_vt6_Rautjärvi", "lat": 61.4025502901, "name_fi": "Tie 6 Rautjärvi"}, {"code": 23533, "lon": 28.3655918853, "lam_code": 533, "name_tsa": "L_vt13_Karhusjärvi", "lat": 61.0368041761, "name_fi": "Tie 13 Karhusjärvi"}, {"code": 23547, "lon": 28.4922802608, "lam_code": 547, "name_tsa": "L_vt13_Nuijamaa_MP5", "lat": 60.9772938294, "name_fi": "Tie 13 Nuijamaa"}, {"code": 23582, "lon": 28.5357651575, "lam_code": 582, "name_tsa": "L_vt13_Nuijamaa", "lat": 60.9539881509, "name_fi": "Tie 13 Nuijamaa"}, {"code": 23597, "lon": 28.5357651575, "lam_code": 597, "name_tsa": "L_vt13_Nuijamaa_rask", "lat": 60.9539881509, "name_fi": "Tie 13 Nuijamaa, raskaat"}, {"code": 23306, "lon": 28.4922802608, "lam_code": 306, "name_tsa": "L_vt13_Nuijamaa_Uusi", "lat": 60.9772938294, "name_fi": "Tie 13 Nuijamaa"}, {"code": 23528, "lon": 28.6536242273, "lam_code": 528, "name_tsa": "L_kt62_Ruokolahti", "lat": 61.3756082928, "name_fi": "Tie 62 Ruokolahti"}, {"code": 23535, "lon": 28.8191866584, "lam_code": 535, "name_tsa": "L_kt62_Imatra_raja1", "lat": 61.1351921669, "name_fi": "Tie 62 Imatra raja 1"}, {"code": 23532, "lon": 28.835081528, "lam_code": 532, "name_tsa": "L_kt62_Imatra_raja2", "lat": 61.1277663724, "name_fi": "Tie 62 Imatra raja 2"}, {"code": 23593, "lon": 27.9925052765, "lam_code": 593, "name_tsa": "L_st387_Ylämaa", "lat": 60.7656989268, "name_fi": "Tie 387 Ylämaa"}, {"code": 23630, "lon": 26.3816537781, "lam_code": 630, "name_tsa": "L_vt5_Kuortti", "lat": 61.4038429514, "name_fi": "Tie 5 Pertunmaa, Kuortti"}, {"code": 23602, "lon": 26.7361778946, "lam_code": 602, "name_tsa": "L_vt5_Toivola", "lat": 61.4715499425, "name_fi": "Tie 5 Mäntyharju"}, {"code": 23627, "lon": 27.5991507662, "lam_code": 627, "name_tsa": "L_vt5_Nuutilanmäki", "lat": 61.7961952413, "name_fi": "Tie 5 Juva, Nuutilanmäki"}, {"code": 23603, "lon": 27.8380678085, "lam_code": 603, "name_tsa": "L_vt5_Joroinen", "lat": 62.1381151405, "name_fi": "Tie 5 Joroinen"}, {"code": 23631, "lon": 27.8654005874, "lam_code": 631, "name_tsa": "L_vt5_Kuvansi_uusi", "lat": 62.2765321989, "name_fi": "Tie 5 Kuvansi"}, {"code": 23622, "lon": 26.4999931882, "lam_code": 622, "name_tsa": "L_vt13_Kangasniemi", "lat": 62.0952694175, "name_fi": "Tie 13 Kangasniemi"}, {"code": 23604, "lon": 27.2546240112, "lam_code": 604, "name_tsa": "L_vt13_Ristiina", "lat": 61.5563756972, "name_fi": "Tie 13 Ristiina"}, {"code": 23526, "lon": 27.3847774842, "lam_code": 526, "name_tsa": "L_vt13_Suomenniemi", "lat": 61.3188513996, "name_fi": "Tie 13 Suomenniemi"}, {"code": 23605, "lon": 27.8214924477, "lam_code": 605, "name_tsa": "L_vt14_Juva1", "lat": 61.8983560675, "name_fi": "Tie 14 Juva"}, {"code": 23632, "lon": 28.8486503497, "lam_code": 632, "name_tsa": "L_vt14_Hevonpäänniemi", "lat": 61.8536699725, "name_fi": "Tie 14 Savonlinna, Hevonpäänniemi"}, {"code": 23606, "lon": 28.9497751585, "lam_code": 606, "name_tsa": "L_vt14_Savonlinna", "lat": 61.8729352631, "name_fi": "Tie 14 Savonlinna"}, {"code": 23629, "lon": 27.3988576182, "lam_code": 629, "name_tsa": "L_vt23_Siikamäki", "lat": 62.2902075121, "name_fi": "Tie 23 Pieksämäki, Siikamä"}, {"code": 23607, "lon": 27.2476099819, "lam_code": 607, "name_tsa": "L_kt72_Virtasalmi", "lat": 62.1248826793, "name_fi": "Tie 72 Virtasalmi"}, {"code": 23801, "lon": 27.6823676589, "lam_code": 801, "name_tsa": "L_vt5_Leppävirta", "lat": 62.5195382117, "name_fi": "Tie 5 Leppävirta"}, {"code": 23825, "lon": 27.5975353416, "lam_code": 825, "name_tsa": "L_vt5_Hiltulanlahti", "lat": 62.8099142384, "name_fi": "Tie 5 Hiltulanlahti"}, {"code": 23832, "lon": 27.6197251107, "lam_code": 832, "name_tsa": "L_vt5_Levänen", "lat": 62.869821494, "name_fi": "Tie 5 Levänen"}, {"code": 23828, "lon": 27.677974186, "lam_code": 828, "name_tsa": "L_vt5_Rahusenlampi", "lat": 62.9188035446, "name_fi": "Tie 5 Rahusenlampi"}, {"code": 23834, "lon": 27.6808351644, "lam_code": 834, "name_tsa": "L_vt5_Tikkalansaari", "lat": 62.9529963123, "name_fi": ""}, {"code": 23835, "lon": 27.6971424711, "lam_code": 835, "name_tsa": "L_vt5_Sorsasalo_Vuorela", "lat": 62.9640107798, "name_fi": ""}, {"code": 23836, "lon": 27.706253156, "lam_code": 836, "name_tsa": "L_vt5_Vuorela", "lat": 62.9820157116, "name_fi": ""}, {"code": 23803, "lon": 27.647689969, "lam_code": 803, "name_tsa": "L_vt5_Siilinjärvi", "lat": 63.1039779085, "name_fi": "Tie 5 Siilinjärvi"}, {"code": 23826, "lon": 27.2490694938, "lam_code": 826, "name_tsa": "L_vt5_Iisalmi", "lat": 63.5639368393, "name_fi": "Tie 5 Iisalmi"}, {"code": 23821, "lon": 27.4160411877, "lam_code": 821, "name_tsa": "L_vt9_Suonenjoki", "lat": 62.6769097451, "name_fi": "Tie 9 Suonenjoki"}, {"code": 23827, "lon": 27.8827041295, "lam_code": 827, "name_tsa": "L_vt9_Jännevirta", "lat": 62.9497608404, "name_fi": "Tie 17 Jännevirta"}, {"code": 23804, "lon": 28.3324676233, "lam_code": 804, "name_tsa": "L_vt9_Tuusniemi", "lat": 62.8701194071, "name_fi": "Tie 9 Tuusniemi"}, {"code": 23807, "lon": 26.4368411016, "lam_code": 807, "name_tsa": "L_vt27_Kiuruvesi", "lat": 63.67350951, "name_fi": "Tie 27 Kiuruvesi"}, {"code": 23833, "lon": 27.8254827373, "lam_code": 833, "name_tsa": "L_kt75_Pajukoski", "lat": 63.1348283619, "name_fi": "Tie 75 Pajukoski"}, {"code": 23824, "lon": 28.0659288055, "lam_code": 824, "name_tsa": "L_kt75_Nilsiä", "lat": 63.1553878958, "name_fi": "Tie 75 Nilsiä"}, {"code": 23805, "lon": 28.5711213602, "lam_code": 805, "name_tsa": "L_kt75_Rautavaara", "lat": 63.3690966853, "name_fi": "Tie 75 Rautavaara"}, {"code": 23806, "lon": 26.7143999776, "lam_code": 806, "name_tsa": "L_kt77_Pielavesi", "lat": 63.1945080591, "name_fi": "Tie 77 Pielavesi"}, {"code": 23822, "lon": 26.9749529682, "lam_code": 822, "name_tsa": "L_kt88_Vieremä", "lat": 63.7508821669, "name_fi": "Tie 88 Vieremä"}, {"code": 23732, "lon": 29.8738223097, "lam_code": 732, "name_tsa": "L_vt6_Kousa", "lat": 61.9739994069, "name_fi": "Tie 6 Kesälahti, Kousa"}, {"code": 23731, "lon": 29.8625453894, "lam_code": 731, "name_tsa": "L_vt6_Reijola", "lat": 62.5308410829, "name_fi": "Tie 6 Reijola"}, {"code": 23733, "lon": 29.7811507866, "lam_code": 733, "name_tsa": "L_vt6_Joensuu2", "lat": 62.6141759963, "name_fi": "Tie 6 Joensuu"}, {"code": 23727, "lon": 29.7867736777, "lam_code": 727, "name_tsa": "L_vt6_Kontiolahti2", "lat": 62.65996161, "name_fi": "Tie 6 Kontiolahti"}, {"code": 23725, "lon": 29.2214488233, "lam_code": 725, "name_tsa": "L_vt6_Juuka2", "lat": 63.2868295707, "name_fi": "Tie 6 Juuka 2"}, {"code": 23701, "lon": 29.1047475329, "lam_code": 701, "name_tsa": "L_vt9_Viinijärvi", "lat": 62.6838756161, "name_fi": "Tie 9 Viinijärvi"}, {"code": 23726, "lon": 29.5828626441, "lam_code": 726, "name_tsa": "L_vt9_Ylämylly", "lat": 62.6254561885, "name_fi": "Tie 9 Liperi, Ylämylly"}, {"code": 23730, "lon": 29.7121444857, "lam_code": 730, "name_tsa": "L_vt9_Noljakka", "lat": 62.6246283766, "name_fi": "Tie 9 Noljakka"}, {"code": 23729, "lon": 30.5342617415, "lam_code": 729, "name_tsa": "L_vt9_Kaurila", "lat": 62.1763990239, "name_fi": "Tie 70 Tohmajärvi, Kaurila"}, {"code": 23724, "lon": 30.631761894, "lam_code": 724, "name_tsa": "L_vt9_Niirala", "lat": 62.1662545019, "name_fi": "Tie 9 Niirala"}, {"code": 23723, "lon": 29.256282622, "lam_code": 723, "name_tsa": "L_vt23_Liperi", "lat": 62.6064488778, "name_fi": "Tie 23 Liperi"}, {"code": 23704, "lon": 29.6085569276, "lam_code": 704, "name_tsa": "L_kt71_Kesälahti", "lat": 62.051730781, "name_fi": "Tie 71 Kesälahti"}, {"code": 23705, "lon": 30.0479543327, "lam_code": 705, "name_tsa": "L_kt73_Lieksa", "lat": 63.3045800568, "name_fi": "Tie 73 Lieksa"}, {"code": 23928, "lon": 26.095200941, "lam_code": 928, "name_tsa": "L_vt4_Joutsa", "lat": 61.7988310141, "name_fi": "Tie 4 Joutsa"}, {"code": 23935, "lon": 25.9790045766, "lam_code": 935, "name_tsa": "L_vt4_Toivakka2", "lat": 62.1062837007, "name_fi": "Tie 4 Toivakka"}, {"code": 23929, "lon": 25.8924637484, "lam_code": 929, "name_tsa": "L_vt4_Hupeli", "lat": 62.234163989, "name_fi": "Tie 4 Hupeli"}, {"code": 23923, "lon": 25.7857928325, "lam_code": 923, "name_tsa": "L_vt4_Jyväskylä", "lat": 62.2430480381, "name_fi": "Tie 4 Jyväskylä"}, {"code": 23933, "lon": 25.7283504128, "lam_code": 933, "name_tsa": "L_vt4_Palokka", "lat": 62.278362815, "name_fi": "Tie 4 Palokka"}, {"code": 23901, "lon": 25.7048529326, "lam_code": 901, "name_tsa": "L_vt4_Tikkakoski", "lat": 62.3695273028, "name_fi": "Tie 4 Tikkakoski"}, {"code": 23902, "lon": 25.7271679136, "lam_code": 902, "name_tsa": "L_vt4_Äänekoski", "lat": 62.6571645312, "name_fi": "Tie 4 Äänekoski"}, {"code": 23932, "lon": 25.8170272268, "lam_code": 932, "name_tsa": "L_vt4_Hännilänsalmi", "lat": 63.042481798, "name_fi": "Tie 4 Hännilänsalmi"}, {"code": 23925, "lon": 25.6693393126, "lam_code": 925, "name_tsa": "L_vt4_Viitasaari", "lat": 63.2239242383, "name_fi": "Tie 4 Viitasaari"}, {"code": 23930, "lon": 25.1595077026, "lam_code": 930, "name_tsa": "L_vt9_Jämsä", "lat": 61.848212222, "name_fi": "Tie 9 Jämsä"}, {"code": 23927, "lon": 25.3991456669, "lam_code": 927, "name_tsa": "L_vt9_Korpilahti", "lat": 61.9768225134, "name_fi": "Tie 9 Korpilahti"}, {"code": 23922, "lon": 25.6126168556, "lam_code": 922, "name_tsa": "L_vt9_Muurame", "lat": 62.0832621908, "name_fi": "Tie 9 Muurame"}, {"code": 23903, "lon": 26.1581541314, "lam_code": 903, "name_tsa": "L_vt9_Lievestuore", "lat": 62.2486065236, "name_fi": "Tie 9 Laukaa, Lievestuore"}, {"code": 23904, "lon": 25.0642085377, "lam_code": 904, "name_tsa": "L_vt13_Saarijärvi", "lat": 62.7952372898, "name_fi": "Tie 13 Saarijärvi"}, {"code": 23931, "lon": 25.3946739047, "lam_code": 931, "name_tsa": "L_vt18_Petäjävesi", "lat": 62.2715942736, "name_fi": "Tie 18 Petäjävesi"}, {"code": 23905, "lon": 24.5629787954, "lam_code": 905, "name_tsa": "L_vt23_Keuruu1", "lat": 62.2451798902, "name_fi": "Tie 23 Keuruu"}, {"code": 23921, "lon": 25.1444116729, "lam_code": 921, "name_tsa": "L_vt24_Kuhmoinen", "lat": 61.4871548745, "name_fi": "Tie 24 Kuhmoinen"}, {"code": 23934, "lon": 25.8217392212, "lam_code": 934, "name_tsa": "L_st637_Tiituspohja", "lat": 62.3009741536, "name_fi": "Tie 637 Tiituspohja"}, {"code": 24021, "lon": 22.7927415233, "lam_code": 1021, "name_tsa": "L_vt3_Koskue", "lat": 62.3923708394, "name_fi": "Tie 3 Koskue"}, {"code": 24047, "lon": 22.4338923492, "lam_code": 1047, "name_tsa": "L_vt3_Kurikka_Tuiskula", "lat": 62.6140398028, "name_fi": "Tie 3 Kurikka"}, {"code": 24058, "lon": 22.5474104544, "lam_code": 1058, "name_tsa": "L_vt16_Ylistaro", "lat": 62.9601468751, "name_fi": "Tie 16 Ylistaro"}, {"code": 24027, "lon": 23.6784162289, "lam_code": 1027, "name_tsa": "L_vt16_Alajärvi", "lat": 63.0177723865, "name_fi": "Tie 16 Alajärvi"}, {"code": 24032, "lon": 22.7816950936, "lam_code": 1032, "name_tsa": "L_vt18_Nurmo_Munakka", "lat": 62.8507162226, "name_fi": "Tie 18 Nurmo, Munakka"}, {"code": 24061, "lon": 22.8517728769, "lam_code": 1061, "name_tsa": "L_vt18_Seinäjöki_Pajuneva", "lat": 62.8105687623, "name_fi": "Tie 18 Seinäjoki, Pajuneva"}, {"code": 24037, "lon": 23.0095746729, "lam_code": 1037, "name_tsa": "L_vt18_Nurmo_Uittoo", "lat": 62.7727582585, "name_fi": "Tie 18 Nurmo"}, {"code": 24056, "lon": 23.4687082211, "lam_code": 1056, "name_tsa": "L_vt18_Alavus_Kuivaskylä", "lat": 62.5661632529, "name_fi": "Tie 18 Alavus"}, {"code": 24033, "lon": 23.6902770177, "lam_code": 1033, "name_tsa": "L_vt18_Alavus_Tuuri", "lat": 62.5938943732, "name_fi": "Tie 18 Alavus"}, {"code": 24062, "lon": 23.7634590435, "lam_code": 1062, "name_tsa": "L_vt18_Töysä_Jokikylä", "lat": 62.6134493495, "name_fi": "Tie 18 Töysä, Jokikylä"}, {"code": 24005, "lon": 22.7501840005, "lam_code": 1005, "name_tsa": "L_vt19_Luopajärvi", "lat": 62.5860549206, "name_fi": "Tie 19 Luopajärvi"}, {"code": 24034, "lon": 22.8437574846, "lam_code": 1034, "name_tsa": "L_vt19_Seinäjoki", "lat": 62.7977738377, "name_fi": "Tie 19 Seinäjoki"}, {"code": 24059, "lon": 22.925677209, "lam_code": 1059, "name_tsa": "L_vt19_Nurmo", "lat": 62.8268791578, "name_fi": "Tie 19 Nurmo"}, {"code": 24007, "lon": 23.0390840335, "lam_code": 1007, "name_tsa": "L_vt19_Lapua", "lat": 62.9394586724, "name_fi": "Tie 19 Lapua"}, {"code": 24049, "lon": 23.0570028579, "lam_code": 1049, "name_tsa": "L_vt19_Lapua_Voitilanjärvi", "lat": 62.9932946602, "name_fi": "Tie 19 Lapua"}, {"code": 24031, "lon": 22.7994808012, "lam_code": 1031, "name_tsa": "L_vt19_Alahärmä_Voltti", "lat": 63.2891969454, "name_fi": "Tie 19 Alahärmä, Voltti"}, {"code": 24054, "lon": 22.2084972841, "lam_code": 1054, "name_tsa": "L_kt44_Kauhajoki", "lat": 62.4078166802, "name_fi": "Tie 44 Kauhajoki"}, {"code": 24035, "lon": 23.0674747541, "lam_code": 1035, "name_tsa": "L_kt63_Kauhava", "lat": 63.1241420255, "name_fi": "Tie 63 Kauhava"}, {"code": 24024, "lon": 23.623819213, "lam_code": 1024, "name_tsa": "L_kt66_Alavus_Sampsalampi", "lat": 62.4360499358, "name_fi": "Tie 66 Alavus"}, {"code": 24060, "lon": 23.5759847339, "lam_code": 1060, "name_tsa": "L_kt66_Alavus_Pohjoinen", "lat": 62.6350975692, "name_fi": "Tie 66 Alavus, pohjoinen"}, {"code": 24044, "lon": 23.5168624294, "lam_code": 1044, "name_tsa": "L_kt66_Kuortane", "lat": 62.8051499428, "name_fi": "Tie 66 Kuortane"}, {"code": 24046, "lon": 21.6977735616, "lam_code": 1046, "name_tsa": "L_kt67_Teuva", "lat": 62.4733758598, "name_fi": "Tie 67 Teuva"}, {"code": 24042, "lon": 22.2716114895, "lam_code": 1042, "name_tsa": "L_kt67_Kauhajoki_P", "lat": 62.4834813292, "name_fi": "Tie 67 Kauhajoki, pohjoine"}, {"code": 24006, "lon": 22.6337152319, "lam_code": 1006, "name_tsa": "L_kt67_Ilmajoki", "lat": 62.7416823442, "name_fi": "Tie 67 Ilmajoki"}, {"code": 24039, "lon": 24.0424319798, "lam_code": 1039, "name_tsa": "L_kt68_Ähtäri", "lat": 62.537619485, "name_fi": "Tie 68 Ähtäri"}, {"code": 24055, "lon": 23.9383391259, "lam_code": 1055, "name_tsa": "L_kt68_Lehtimäki", "lat": 62.7819998975, "name_fi": "Tie 68 Lehtimäki"}, {"code": 24028, "lon": 23.5155083466, "lam_code": 1028, "name_tsa": "L_kt68_Evijärvi", "lat": 63.3324551515, "name_fi": "Tie 68 Evijärvi"}, {"code": 24043, "lon": 22.3753459273, "lam_code": 1043, "name_tsa": "L_yt17367_Kurikka_Panttil", "lat": 62.6673661279, "name_fi": "Tie 17367 Kurikka, Panttil"}, {"code": 24001, "lon": 22.2791414841, "lam_code": 1001, "name_tsa": "L_vt3_Huissi", "lat": 62.7904838888, "name_fi": "Tie 3 Huissi"}, {"code": 24051, "lon": 22.0489119292, "lam_code": 1051, "name_tsa": "L_vt3_Laihia_Perälä", "lat": 62.9295490916, "name_fi": "Tie 3 Laihia, Perälä"}, {"code": 24002, "lon": 21.8072294235, "lam_code": 1002, "name_tsa": "L_vt3_Hälsingby", "lat": 63.020135173, "name_fi": "Tie 3 Hälsingby"}, {"code": 24030, "lon": 21.702891604, "lam_code": 1030, "name_tsa": "L_vt3_Vaasa_Mt", "lat": 63.0618676869, "name_fi": "Tie 3 Vaasa"}, {"code": 24050, "lon": 21.5343534214, "lam_code": 1050, "name_tsa": "L_vt8_Kristiinankaupunki", "lat": 62.0417106058, "name_fi": "Tie 8 Kristiinankaupunki"}, {"code": 24022, "lon": 21.4235413547, "lam_code": 1022, "name_tsa": "L_vt8_Närpiö", "lat": 62.4423519563, "name_fi": "Tie 8 Närpiö"}, {"code": 24045, "lon": 21.7625741663, "lam_code": 1045, "name_tsa": "L_vt8_Mustasaari_Riimal", "lat": 62.9521379559, "name_fi": "Tie 8 Mustasaari, Riimala"}, {"code": 24057, "lon": 21.671030288, "lam_code": 1057, "name_tsa": "L_vt8_Vaasa_Yhdystie", "lat": 63.0870070554, "name_fi": "Tie 8 Vaasa, Yhdystie"}, {"code": 24067, "lon": 21.6539991878, "lam_code": 1067, "name_tsa": "L_vt8_Vaasa_Böle", "lat": 63.1074830486, "name_fi": "Tie 8 Vaasa, Böle"}, {"code": 24066, "lon": 21.7197608152, "lam_code": 1066, "name_tsa": "L_vt8_Mustasaari_Lintuvuori", "lat": 63.130045485, "name_fi": "Tie 8 Mustassaari, Lintuvuori"}, {"code": 24003, "lon": 21.7824109193, "lam_code": 1003, "name_tsa": "L_vt8_Koivulahti", "lat": 63.1429228228, "name_fi": "Tie 8 Mustasaari, Koivulah"}, {"code": 24063, "lon": 22.2820914829, "lam_code": 1063, "name_tsa": "L_vt8_Kaitsor_Vöyri-Maksamaa", "lat": 63.2563241381, "name_fi": "Tie 8 Kaitsor, Vöyri-Maksamaa"}, {"code": 24026, "lon": 22.7020697053, "lam_code": 1026, "name_tsa": "L_vt8_Kovjoki", "lat": 63.5493862625, "name_fi": "Tie 8 Kovjoki"}, {"code": 24053, "lon": 22.0822604279, "lam_code": 1053, "name_tsa": "L_vt18_Laihia_Vedenoja", "lat": 62.9655183485, "name_fi": "Tie 18 Laihia, Vedenoja"}, {"code": 24004, "lon": 22.3439321317, "lam_code": 1004, "name_tsa": "L_vt16_Isokyrö", "lat": 62.9803007138, "name_fi": "Tie 16 Isokyrö"}, {"code": 24036, "lon": 22.8125207354, "lam_code": 1036, "name_tsa": "L_kt68_Pietarsaari", "lat": 63.6413441852, "name_fi": "Tie 68 Pietarsaari"}, {"code": 24029, "lon": 21.4868605787, "lam_code": 1029, "name_tsa": "L_st724_Raippaluoto", "lat": 63.2041939584, "name_fi": "Tie 724 Raippaluoto"}, {"code": 24023, "lon": 23.2402742666, "lam_code": 1023, "name_tsa": "L_vt8_Kokkola", "lat": 63.8591946406, "name_fi": "Tie 8 Kokkola"}, {"code": 24048, "lon": 23.206248648, "lam_code": 1048, "name_tsa": "L_vt13_Kokkola_Ribacken", "lat": 63.7755953011, "name_fi": "Tie 13 Kokkola"}, {"code": 24041, "lon": 23.4668837652, "lam_code": 1041, "name_tsa": "L_vt13_Kaustinen_Viiperi", "lat": 63.6021633286, "name_fi": "Tie 13 Kaustinen"}, {"code": 24122, "lon": 23.9175295699, "lam_code": 1122, "name_tsa": "L_vt13_Veteli", "lat": 63.4280395647, "name_fi": "Tie 13 Veteli"}, {"code": 24064, "lon": 24.5223802235, "lam_code": 1064, "name_tsa": "L_vt13_Perho_Möttönen", "lat": 63.1673000165, "name_fi": "Tie 13 Perho, Möttönen"}, {"code": 24065, "lon": 24.1222237061, "lam_code": 1065, "name_tsa": "L_vt18_Ähtäri_Inha", "lat": 62.5554632195, "name_fi": "Tie 18 Ähtäri, Inha"}, {"code": 24040, "lon": 23.8606247711, "lam_code": 1040, "name_tsa": "L_vt28_Kannus", "lat": 63.8994392526, "name_fi": "Tie 28 Kannus"}, {"code": 24038, "lon": 23.7514299137, "lam_code": 1038, "name_tsa": "L_kt63_Kaustinen", "lat": 63.5593341411, "name_fi": "Tie 63 Kaustinen"}, {"code": 24101, "lon": 25.7884932295, "lam_code": 1101, "name_tsa": "L_vt4_Pyhäjärvi", "lat": 63.6219593542, "name_fi": "Tie 4 Pyhäjärvi"}, {"code": 24121, "lon": 25.8033121623, "lam_code": 1121, "name_tsa": "L_vt4_Kärsämäki", "lat": 63.946915271, "name_fi": "Tie 4 Kärsämäki"}, {"code": 24221, "lon": 25.8533108736, "lam_code": 1221, "name_tsa": "L_vt4_Rantsila", "lat": 64.3848740722, "name_fi": "Tie 4 Rantsila"}, {"code": 24236, "lon": 25.54639975, "lam_code": 1236, "name_tsa": "L_vt4_Ala-Temmes", "lat": 64.7743145029, "name_fi": "Tie 4 Alatemmes"}, {"code": 24243, "lon": 25.5037997191, "lam_code": 1243, "name_tsa": "L_vt4_Luhasto", "lat": 64.8428099511, "name_fi": "Tie 4 Luhasto"}, {"code": 24226, "lon": 25.5387281535, "lam_code": 1226, "name_tsa": "L_vt4_Kempele", "lat": 64.9137531469, "name_fi": "Tie 4 Kempele"}, {"code": 24201, "lon": 25.5169209377, "lam_code": 1201, "name_tsa": "L_vt4_Oulu_Mäntylä", "lat": 64.9793587638, "name_fi": "Tie 4 Oulu, Mäntylä"}, {"code": 24251, "lon": 25.5045686438, "lam_code": 1251, "name_tsa": "L_vt4_Oulu_Lintula", "lat": 64.9682862969, "name_fi": "Tie 4 Oulu, Lintula"}, {"code": 24250, "lon": 25.50978468, "lam_code": 1250, "name_tsa": "L_vt4_Välkkylä", "lat": 65.010842918, "name_fi": "Tie 4 Välkkylä"}, {"code": 24237, "lon": 25.5102721385, "lam_code": 1237, "name_tsa": "L_vt4_Oulu", "lat": 65.0211328135, "name_fi": "Tie 4 Oulu, Intiö"}, {"code": 24244, "lon": 25.4984063324, "lam_code": 1244, "name_tsa": "L_vt4_Laanila", "lat": 65.0317029978, "name_fi": "Tie 4 Oulu, Laanila"}, {"code": 24238, "lon": 25.4662630534, "lam_code": 1238, "name_tsa": "L_vt4_Isko", "lat": 65.0463556873, "name_fi": "Tie 4 Linnanmaa"}, {"code": 24246, "lon": 25.438682607, "lam_code": 1246, "name_tsa": "L_vt4_Kuivasjärvi", "lat": 65.0743321946, "name_fi": "Tie 4 Oulu, Kuivasjärvi"}, {"code": 24231, "lon": 25.4299454966, "lam_code": 1231, "name_tsa": "L_vt4_Kalimenoja", "lat": 65.1229832167, "name_fi": "Tie 4 Kello"}, {"code": 24202, "lon": 25.3728164455, "lam_code": 1202, "name_tsa": "L_vt4_Ii", "lat": 65.3018357857, "name_fi": "Tie 4 Ii"}, {"code": 24229, "lon": 25.2382494176, "lam_code": 1229, "name_tsa": "L_vt4_Kuivaniemi", "lat": 65.5457726921, "name_fi": "Tie 4 Ii, Kuivaniemi"}, {"code": 24234, "lon": 29.1646198042, "lam_code": 1234, "name_tsa": "L_vt5_Toranki", "lat": 65.947487074, "name_fi": "Tie 5 Kuusamo, Toranki"}, {"code": 24203, "lon": 29.1451031539, "lam_code": 1203, "name_tsa": "L_vt5_Kuusamo", "lat": 66.0604878333, "name_fi": "Tie 5 Kuusamo"}, {"code": 24052, "lon": 23.6416258291, "lam_code": 1052, "name_tsa": "L_vt8_Himanka", "lat": 64.0494603948, "name_fi": "Tie 8 Himanka"}, {"code": 24124, "lon": 23.9522197148, "lam_code": 1124, "name_tsa": "L_vt8_Rahvo", "lat": 64.2804909806, "name_fi": "Tie 8 Kalajoki, Rahvo"}, {"code": 24204, "lon": 24.5616236971, "lam_code": 1204, "name_tsa": "L_vt8_Raahe", "lat": 64.6863283194, "name_fi": "Tie 8 Raahe"}, {"code": 24235, "lon": 25.3488398466, "lam_code": 1235, "name_tsa": "L_vt8_Lapinkangas", "lat": 64.7814026548, "name_fi": "Tie 8 Liminka"}, {"code": 24254, "lon": 25.6077342734, "lam_code": 1254, "name_tsa": "L_vt20_Rusko2", "lat": 65.054766334, "name_fi": "Tie 20 Oulu, Rusko"}, {"code": 24223, "lon": 25.6375267761, "lam_code": 1223, "name_tsa": "L_vt20_Kiiminki", "lat": 65.0652623851, "name_fi": "Tie 20 Kiiminki"}, {"code": 24230, "lon": 26.7306880502, "lam_code": 1230, "name_tsa": "L_vt20_Rankkila", "lat": 65.2689329141, "name_fi": "Tie 20 Pudasjärvi, Rankkil"}, {"code": 24232, "lon": 27.4224831723, "lam_code": 1232, "name_tsa": "L_vt20_Kettumäki", "lat": 65.4165562388, "name_fi": "Tie 20 Kettumäki"}, {"code": 24224, "lon": 27.6001085261, "lam_code": 1224, "name_tsa": "L_vt20_Pintamo", "lat": 65.4432505069, "name_fi": "Tie 20 Pudasjärvi, Pintamo"}, {"code": 24241, "lon": 25.5438555068, "lam_code": 1241, "name_tsa": "L_vt22_Maikkula", "lat": 64.9891550183, "name_fi": "Tie 22 Maikkula"}, {"code": 24227, "lon": 25.8871160772, "lam_code": 1227, "name_tsa": "L_vt22_Muhos", "lat": 64.8545275068, "name_fi": "Tie 22 Muhos"}, {"code": 24104, "lon": 24.3519363943, "lam_code": 1104, "name_tsa": "L_vt27_Alavieska", "lat": 64.1248253862, "name_fi": "Tie 27 Alavieska"}, {"code": 24105, "lon": 25.6057313333, "lam_code": 1105, "name_tsa": "L_vt27_Haapajärvi", "lat": 63.7443334392, "name_fi": "Tie 27 Haapajärvi"}, {"code": 24103, "lon": 24.7353637745, "lam_code": 1103, "name_tsa": "L_vt28_Sievi", "lat": 63.873002837, "name_fi": "Tie 28 Sievi"}, {"code": 24225, "lon": 26.6873056347, "lam_code": 1225, "name_tsa": "L_kt78_Pudasjärvi", "lat": 65.6686017135, "name_fi": "Tie 78 Pudasjärvi"}, {"code": 24123, "lon": 24.8300739728, "lam_code": 1123, "name_tsa": "L_kt86_Oulainen", "lat": 64.2428546325, "name_fi": "Tie 86 Oulainen"}, {"code": 24205, "lon": 25.3805412883, "lam_code": 1205, "name_tsa": "L_kt86_Liminka", "lat": 64.7102361017, "name_fi": "Tie 86 Liminka"}, {"code": 24233, "lon": 25.1498780978, "lam_code": 1233, "name_tsa": "L_kt88_Alpua", "lat": 64.4538831262, "name_fi": "Tie 88 Vihanti, Alpua"}, {"code": 24239, "lon": 25.4914613326, "lam_code": 1239, "name_tsa": "L_st815_Lentokentäntie", "lat": 64.9504918956, "name_fi": "Tie 815 Oulunsalo"}, {"code": 24248, "lon": 25.4133522117, "lam_code": 1248, "name_tsa": "L_st815_Oulunsalo", "lat": 64.9359406192, "name_fi": "Tie 815 Oulunsalo"}, {"code": 24249, "lon": 25.398078795, "lam_code": 1249, "name_tsa": "L_st815_Lunki", "lat": 64.933739941, "name_fi": "Tie 815 Lunki"}, {"code": 24253, "lon": 25.0544934618, "lam_code": 1253, "name_tsa": "L_st816_Hailuoto", "lat": 65.0411800357, "name_fi": "Tie 816 Hailuoto"}, {"code": 24222, "lon": 25.4907093281, "lam_code": 1222, "name_tsa": "L_st847_Tupos", "lat": 64.8306870797, "name_fi": "Tie 4 Liminka, Tupos"}, {"code": 24247, "lon": 25.4958296892, "lam_code": 1247, "name_tsa": "L_st847_Oulunlahti", "lat": 64.9722461127, "name_fi": "Tie 847 Oulunlahti"}, {"code": 24228, "lon": 25.3731141222, "lam_code": 1228, "name_tsa": "L_st847_Haukipudas", "lat": 65.1187962194, "name_fi": "Tie 847 Haukipudas"}, {"code": 24252, "lon": 30.0828781862, "lam_code": 1252, "name_tsa": "L_st866_Kuusamo_T", "lat": 65.772940334, "name_fi": "Tie 866 Kuusamo"}, {"code": 24321, "lon": 27.4089176204, "lam_code": 1321, "name_tsa": "L_vt5_Hatulanmäki", "lat": 63.9929255524, "name_fi": "Tie 5 Hatulanmäki"}, {"code": 24322, "lon": 27.5247880728, "lam_code": 1322, "name_tsa": "L_vt5_Nuottijärvi", "lat": 64.1593736602, "name_fi": "Tie 5 Nuottijärvi"}, {"code": 24301, "lon": 28.0413359655, "lam_code": 1301, "name_tsa": "L_vt5_Rytivaara", "lat": 64.3177940837, "name_fi": "Tie 5 Rytivaara"}, {"code": 24302, "lon": 28.1767966486, "lam_code": 1302, "name_tsa": "L_vt5_Ristijärvi", "lat": 64.4866508349, "name_fi": "Tie 5 Ristijärvi"}, {"code": 24328, "lon": 29.047762298, "lam_code": 1328, "name_tsa": "L_vt5_Tapiola", "lat": 65.3654914444, "name_fi": "Tie 5 Tapiola"}, {"code": 24323, "lon": 27.9949052267, "lam_code": 1323, "name_tsa": "L_vt6_Korholanmäki", "lat": 64.1381854071, "name_fi": "Tie 6 Sotkamo, Korholanmäk"}, {"code": 24324, "lon": 26.650750171, "lam_code": 1324, "name_tsa": "L_vt22_Törmäkylä", "lat": 64.6053068194, "name_fi": "Tie 22 Törmäkylä"}, {"code": 24329, "lon": 27.9534005815, "lam_code": 1329, "name_tsa": "L_vt22_Mieslahti", "lat": 64.3914978721, "name_fi": "Tie 22 Paltamo, Mieslahti"}, {"code": 24326, "lon": 27.2655264392, "lam_code": 1326, "name_tsa": "L_vt28_Vuottolahti", "lat": 64.1150897871, "name_fi": "Tie 28 Vuottolahti"}, {"code": 24303, "lon": 29.6304966968, "lam_code": 1303, "name_tsa": "L_kt75_Kankivaara", "lat": 63.9937963564, "name_fi": "Tie 75 Kankivaara"}, {"code": 24327, "lon": 27.7002084441, "lam_code": 1327, "name_tsa": "L_kt78_Aska", "lat": 65.0485679331, "name_fi": "Tie 78 Arska"}, {"code": 24325, "lon": 29.9014952054, "lam_code": 1325, "name_tsa": "L_kt89_Vartius", "lat": 64.4934276949, "name_fi": "Tie 89 Vartius"}, {"code": 24452, "lon": 24.6857277158, "lam_code": 1452, "name_tsa": "L_vt4_Marostenmäki", "lat": 65.6922448715, "name_fi": "Tie 4 Kemi, Marostenmäki"}, {"code": 24453, "lon": 24.6263935371, "lam_code": 1453, "name_tsa": "L_vt4_Siikalahti", "lat": 65.7112258466, "name_fi": "Tie 4 Kemi, Siikalahti"}, {"code": 24454, "lon": 24.5935448324, "lam_code": 1454, "name_tsa": "L_vt4_Peurasaari", "lat": 65.7275972776, "name_fi": "Tie 4 Kemi, Peurasaari"}, {"code": 24455, "lon": 24.5872958632, "lam_code": 1455, "name_tsa": "L_vt4_Karjalahti", "lat": 65.7393933968, "name_fi": "Tie 4 Kemi, Karjalahti"}, {"code": 24456, "lon": 24.5736624941, "lam_code": 1456, "name_tsa": "L_vt4_Kivikko", "lat": 65.7525713899, "name_fi": "Tie 4 Kemi, Kivikko"}, {"code": 24457, "lon": 24.5718443445, "lam_code": 1457, "name_tsa": "L_vt4_Ristikangas", "lat": 65.7630817663, "name_fi": "Tie 4 Kemi, Ristikangas"}, {"code": 24437, "lon": 24.5245299547, "lam_code": 1437, "name_tsa": "L_vt4_mp3_Jokisuu", "lat": 65.7910951759, "name_fi": "Tie 4 Jokisuu"}, {"code": 24438, "lon": 24.5215085011, "lam_code": 1438, "name_tsa": "L_vt4_mp2_Jokisuu", "lat": 65.7947718664, "name_fi": "Tie 4 Jokisuu"}, {"code": 24401, "lon": 24.7607211027, "lam_code": 1401, "name_tsa": "L_vt4_Tervola", "lat": 66.0808535994, "name_fi": "Tie 4 Tervola"}, {"code": 24451, "lon": 25.5551866436, "lam_code": 1451, "name_tsa": "L_vt4_Ala-Korkalo", "lat": 66.4526977808, "name_fi": "Tie 4 Rovaniemi, Ala-Korkalo"}, {"code": 24450, "lon": 25.7257241693, "lam_code": 1450, "name_tsa": "L_vt4_Revontuli", "lat": 66.504078014, "name_fi": "Tie 4 Rovaniemi"}, {"code": 24424, "lon": 26.0722428206, "lam_code": 1424, "name_tsa": "L_vt4_Olkkajärvi", "lat": 66.5999204751, "name_fi": "Tie 4 Rovaniemi, Olkkajärv"}, {"code": 24448, "lon": 26.6384438334, "lam_code": 1448, "name_tsa": "L_vt4_Torvinen", "lat": 67.1584375669, "name_fi": "Tie 4 Torvinen"}, {"code": 24449, "lon": 26.7542102871, "lam_code": 1449, "name_tsa": "L_vt4_Yläpostojoki", "lat": 67.7069135084, "name_fi": "Tie 4 Yläpostojoki"}, {"code": 24402, "lon": 27.5025914665, "lam_code": 1402, "name_tsa": "L_vt4_Ivalo", "lat": 68.5168668855, "name_fi": "Tie 4 Ivalo"}, {"code": 24444, "lon": 27.0259249051, "lam_code": 1444, "name_tsa": "L_vt4_Utsjoki", "lat": 69.9068898541, "name_fi": "Tie 4 Utsjoki"}, {"code": 24426, "lon": 28.1092549252, "lam_code": 1426, "name_tsa": "L_vt5_Suomu", "lat": 66.5507963195, "name_fi": "Tie 5 Suomu"}, {"code": 24403, "lon": 27.4487884484, "lam_code": 1403, "name_tsa": "L_vt5_Kemijärvi", "lat": 66.8619887243, "name_fi": "Tie 5 Kemijärvi"}, {"code": 24458, "lon": 24.166580127, "lam_code": 1458, "name_tsa": "L_v21_Tornio", "lat": 65.8716728522, "name_fi": "Tie 21 Tornio"}, {"code": 24459, "lon": 23.6956265428, "lam_code": 1459, "name_tsa": "L_v21_Ylitornio", "lat": 66.3651696309, "name_fi": "Tie 21 Ylitornio"}, {"code": 24421, "lon": 23.8925109516, "lam_code": 1421, "name_tsa": "L_vt21_Kolari", "lat": 67.2279968229, "name_fi": "Tie 21 Kolari"}, {"code": 24447, "lon": 20.7695196961, "lam_code": 1447, "name_tsa": "L_vt21_Kilpisjärvi_T", "lat": 69.0422399335, "name_fi": "Tie 21 Enontekiö, Kilpisjä"}, {"code": 24439, "lon": 24.3949135125, "lam_code": 1439, "name_tsa": "L_vt29_Luukkaankangas", "lat": 65.8272331049, "name_fi": "Tie 29 Kemi, Luukkaankanga"}, {"code": 24440, "lon": 24.2076336243, "lam_code": 1440, "name_tsa": "L_vt29_mp1c_Tornio", "lat": 65.8409822216, "name_fi": "Tie 29 Tornio 1"}, {"code": 24441, "lon": 24.2043962293, "lam_code": 1441, "name_tsa": "L_vt29_mp1a_Tornio", "lat": 65.8411296707, "name_fi": "Tie 29 Tornio 2"}, {"code": 24431, "lon": 24.1435734169, "lam_code": 1431, "name_tsa": "L_vt29_Tornio", "lat": 65.8410218674, "name_fi": "Tie 9211 Tornio"}, {"code": 24425, "lon": 26.2476456409, "lam_code": 1425, "name_tsa": "L_kt78_Saukkokangas", "lat": 66.1578013159, "name_fi": "Tie 78 Ranua, Saukkokangas"}, {"code": 24422, "lon": 25.2476608117, "lam_code": 1422, "name_tsa": "L_kt79_Jääskö", "lat": 66.9913889592, "name_fi": "Tie 79 Jääskö"}, {"code": 24423, "lon": 27.7500455274, "lam_code": 1423, "name_tsa": "L_kt81_Peräposio", "lat": 66.1869174156, "name_fi": "Tie 81 Posio, Peräposio"}, {"code": 24405, "lon": 26.6328058579, "lam_code": 1405, "name_tsa": "L_kt82_Misi", "lat": 66.6749237392, "name_fi": "Tie 82 Rovaniemi, Misi"}, {"code": 24430, "lon": 29.0335969137, "lam_code": 1430, "name_tsa": "L_kt82_Salla_Kelloselkä", "lat": 66.9439317595, "name_fi": "Tie 82 Salla, Kelloselkä"}, {"code": 24427, "lon": 24.8504262386, "lam_code": 1427, "name_tsa": "L_kt83_Raanujärvi", "lat": 66.6440108578, "name_fi": "Tie 83 Ylitornio, Raanujär"}, {"code": 24429, "lon": 28.4727563145, "lam_code": 1429, "name_tsa": "L_kt91_Rajajooseppi", "lat": 68.4761834457, "name_fi": "Tie 91 Inari, Rajajooseppi"}, {"code": 24445, "lon": 25.8307914212, "lam_code": 1445, "name_tsa": "L_kt92_Karigasniemi", "lat": 69.3992154425, "name_fi": "Tie 92 Karigasniemi"}, {"code": 24446, "lon": 23.3214488352, "lam_code": 1446, "name_tsa": "L_kt93_Kivilompolo", "lat": 68.6604589627, "name_fi": "Tie 93 Enontekiö, Kivilomp"}, {"code": 24432, "lon": 23.6808681534, "lam_code": 1432, "name_tsa": "L_kt98_Aavasaksa", "lat": 66.3814802001, "name_fi": "Tie 98 Aavasaksa"}, {"code": 24404, "lon": 24.4536046871, "lam_code": 1404, "name_tsa": "L_st921_Kaakamo", "lat": 65.807096015, "name_fi": "Tie 921 Tornio"}, {"code": 24433, "lon": 23.9900475197, "lam_code": 1433, "name_tsa": "L_st937_Pello", "lat": 66.8025282849, "name_fi": "Tie 937 Pello"}, {"code": 24434, "lon": 23.7487992733, "lam_code": 1434, "name_tsa": "L_st943_Kolari", "lat": 67.3138250942, "name_fi": "Tie 943 Kolari"}, {"code": 24435, "lon": 23.6599667395, "lam_code": 1435, "name_tsa": "L_st954_Muonio", "lat": 67.9406615928, "name_fi": "Tie 954 Muonio"}, {"code": 24436, "lon": 22.4850266981, "lam_code": 1436, "name_tsa": "L_st959_Karesuvanto", "lat": 68.4468325238, "name_fi": "Tie 959 Enontekiö, Karesuv"}, {"code": 24443, "lon": 27.9682960743, "lam_code": 1443, "name_tsa": "L_st970_Nuorgam", "lat": 70.0862232059, "name_fi": "Tie 970 Utsjoki, Nuorgam"}, {"code": 24442, "lon": 29.1201840151, "lam_code": 1442, "name_tsa": "L_st971_Näätämö", "lat": 69.6713340042, "name_fi": "Tie 971 Inari, Näätämö"}, {"code": 24499, "lon": 29.1257453135, "lam_code": 1499, "name_tsa": "L_vt29_mp1b_Tornio", "lat": 69.6696607612, "name_fi": "Tie 971 Tornio 3"}]